City_ID,City,Lat,Lng,Max Temp,Humidity,Cloudiness,Wind Speed,Country,Date
0,constantia,44.1833,28.65,29.08,52,2,8.01,RO,1732555447
1,kodiak,57.79,-152.4072,26.11,93,0,3.44,US,1732555394
2,waitangi,-43.9535,-176.5597,55.81,96,67,5.01,NZ,1732555353
3,khandyga,62.6667,135.6,-23.33,99,24,2.53,RU,1732555538
4,saipan,15.1355,145.701,83.1,86,40,18.41,MP,1732555539
5,punta arenas,-53.15,-70.9167,51.91,54,0,10.36,CL,1732555287
6,veinticinco de mayo,-35.4323,-60.1727,79.99,69,48,8.99,AR,1732555541
7,yellowknife,62.456,-114.3525,16.32,92,100,13.8,CA,1732555542
8,port-aux-francais,-49.35,70.2167,40.73,93,84,38.3,TF,1732555497
9,flying fish cove,-10.4217,105.6791,82.42,77,92,4.41,CX,1732555545
10,ulsteinvik,62.3432,5.8487,49.1,84,100,8.61,NO,1732555546
11,vorgashor,67.5833,63.95,19.53,92,100,20.54,RU,1732555547
12,stanley,54.868,-1.6985,42.82,78,20,20.71,GB,1732555548
13,ravenna,44.4167,11.9833,48.88,85,93,1.92,IT,1732555549
14,port mathurin,-19.6833,63.4167,77.09,74,5,16.42,MU,1732555550
15,edinburgh of the seven seas,-37.0676,-12.3116,54.7,68,59,11.97,SH,1732555551
16,hamilton,39.1834,-84.5333,62.04,77,100,12.66,US,1732555552
17,hermanus,-34.4187,19.2345,62.8,78,89,20.71,ZA,1732555553
18,vipiteno,46.8925,11.4301,33.21,100,50,6.08,IT,1732555555
19,las choapas,17.9333,-94.0833,74.03,79,8,4.0,MX,1732555556
20,adamstown,-25.066,-130.1015,71.83,78,14,16.17,PN,1732555557
21,mana,5.6592,-53.7767,83.91,69,27,11.54,GF,1732555558
22,muynoq,43.7683,59.0214,38.7,75,5,3.83,UZ,1732555559
23,leava,-14.3,-178.1667,81.27,79,96,12.37,WF,1732555560
24,albany,42.6001,-73.9662,44.92,55,24,4.0,US,1732555246
25,barra do corda,-5.5,-45.25,98.82,36,63,1.43,BR,1732555562
26,terrace,54.5163,-128.6035,17.51,62,40,23.02,CA,1732555563
27,fale old settlement,-9.3852,-171.2468,83.5,73,98,17.96,TK,1732555564
28,bethel,41.3712,-73.414,50.61,49,0,8.05,US,1732555565
29,margaret river,-33.95,115.0667,52.66,60,3,10.27,AU,1732555567
30,grand falls-windsor,48.9332,-55.6649,43.5,95,100,1.99,CA,1732555568
31,dunedin,-45.8742,170.5036,51.8,83,42,5.01,NZ,1732555569
32,benoy-yurt,43.69,45.05,43.0,72,100,3.49,RU,1732555570
33,tiksi,71.6872,128.8694,2.89,58,62,29.06,RU,1732555571
34,ust-nera,64.5667,143.2,-27.02,99,55,4.36,RU,1732555572
35,sola,-13.8833,167.55,81.19,80,100,7.34,VU,1732555573
36,ushuaia,-54.8,-68.3,55.06,47,0,18.41,AR,1732555574
37,gounou gaya,9.6294,15.5132,80.6,21,6,5.39,TD,1732555575
38,vinh,18.6667,105.6667,73.2,93,91,5.35,VN,1732555576
39,fada,7.25,4.0667,90.27,37,0,4.61,NG,1732555578
40,aitape,-3.1374,142.3475,77.49,93,100,6.51,PG,1732555579
41,port elizabeth,-33.918,25.5701,70.09,95,75,23.02,ZA,1732555580
42,krasnoslobodsk,48.7072,44.5714,35.42,93,100,17.9,RU,1732555581
43,kuala tungkal,-0.8167,103.4667,79.79,87,86,2.77,ID,1732555582
44,kairouan,35.6781,10.0963,64.42,59,0,2.3,TN,1732555583
45,al ghayzah,16.2079,52.176,78.98,67,14,9.6,YE,1732555584
46,wailua homesteads,22.0669,-159.378,63.39,94,38,9.22,US,1732555585
47,tura,25.5198,90.2201,61.02,87,65,4.09,IN,1732555586
48,petropavlovsk-kamchatsky,53.0452,158.6483,19.99,86,75,2.24,RU,1732555587
49,port alfred,-33.5906,26.891,69.19,96,98,7.0,ZA,1732555589
50,katagum,12.2867,10.3527,80.82,18,16,9.6,NG,1732555590
51,puerto ayora,-0.7393,-90.3518,76.55,81,56,8.01,EC,1732555591
52,dalandzadgad,43.5708,104.425,15.96,33,1,11.25,MN,1732555592
53,bredasdorp,-34.5322,20.0403,62.13,73,79,23.31,ZA,1732555593
54,blackmans bay,-43.0167,147.3167,57.33,93,100,1.1,AU,1732555594
55,iskateley,67.6803,53.1512,26.56,87,100,31.5,RU,1732555595
56,turkmenbasy,40.0222,52.9552,57.83,56,100,0.87,TM,1732555596
57,hawaiian paradise park,19.5933,-154.9731,66.9,96,0,8.05,US,1732555597
58,erenhot,43.6475,111.9767,15.66,31,44,15.28,CN,1732555598
59,papatowai,-46.5619,169.4708,52.34,68,17,15.19,NZ,1732555599
60,belyy yar,53.6039,91.3903,13.89,92,100,0.0,RU,1732555601
61,ilulissat,69.2167,-51.1,30.22,93,75,13.8,GL,1732555602
62,zinjibar,13.1287,45.3807,80.29,66,2,11.99,YE,1732555603
63,priyutnoye,46.1011,43.5072,42.42,87,100,6.78,RU,1732555604
64,manggar,-2.8833,108.2667,80.55,81,99,2.62,ID,1732555605
65,guerrero negro,27.9769,-114.0611,64.6,72,100,1.21,MX,1732555419
66,grytviken,-54.2811,-36.5092,37.09,75,99,1.92,GS,1732555326
67,vesoul,47.5833,5.8333,57.81,72,98,24.65,FR,1732555610
68,saint-pierre,-21.3393,55.4781,78.48,73,0,12.66,RE,1732555611
69,colonia,50.9333,6.95,51.96,87,75,10.36,DE,1732555612
70,zhangye,38.9342,100.4517,23.05,27,45,4.52,CN,1732555613
71,tangalle,6.024,80.7911,75.24,91,100,5.12,LK,1732555614
72,puerto natales,-51.7236,-72.4875,59.45,47,75,8.05,CL,1732555390
73,kupang,-10.1667,123.5833,81.18,94,20,3.44,ID,1732555617
74,las tablas,7.7667,-80.2833,83.98,74,40,3.96,PA,1732555618
75,svetlyy,54.675,20.1347,48.97,64,81,17.11,RU,1732555619
76,puerto san jose,13.9256,-90.8244,87.85,62,40,6.91,GT,1732555621
77,lorengau,-2.0226,147.2712,81.73,82,96,8.1,PG,1732555622
78,avarua,-21.2078,-159.775,75.25,94,20,2.3,CK,1732555340
79,yuzhno-kurilsk,44.0306,145.8556,34.75,65,30,15.35,RU,1732555624
80,polyarnyy,69.1989,33.4478,34.59,87,100,24.54,RU,1732555625
81,atafu village,-8.5421,-172.5159,83.59,75,59,18.63,TK,1732555626
82,port-vila,-17.7338,168.3219,73.0,100,20,3.44,VU,1732555627
83,invercargill,-46.4,168.35,54.01,76,40,14.0,NZ,1732555628
84,kavaratti,10.5669,72.642,82.47,67,68,7.81,IN,1732555629
85,al jahra',29.3375,47.6581,71.82,58,65,11.97,KW,1732555631
86,portland,45.5234,-122.6762,47.8,94,75,14.97,US,1732555471
87,olonkinbyen,70.9221,-8.7187,25.39,63,74,12.91,SJ,1732555633
88,lesogorsk,56.0458,99.5136,21.94,89,100,9.6,RU,1732555634
89,lihue,21.9789,-159.3672,63.99,94,24,9.22,US,1732555635
90,awjilah,29.1081,21.2869,58.12,45,82,8.61,LY,1732555636
91,krasnozerskoye,53.9828,79.2374,9.97,91,41,2.64,RU,1732555637
92,ghormach,35.7306,63.7826,59.41,37,14,4.09,AF,1732555638
93,camana,-16.6228,-72.7111,69.69,74,51,9.31,PE,1732555639
94,aasiaat,68.7098,-52.8699,30.72,97,100,27.51,GL,1732555641
95,susuman,62.7833,148.1667,-33.07,96,30,0.81,RU,1732555642
96,gerash,27.6652,54.1371,60.94,46,29,2.26,IR,1732555643
97,el-tor,28.2364,33.6254,66.34,45,0,20.71,EG,1732555644
98,iqaluit,63.7506,-68.5145,4.73,65,75,16.11,CA,1732555645
99,puerto colombia,10.9878,-74.9547,87.89,70,100,3.0,CO,1732555646
100,taoudenni,22.6783,-3.9836,83.03,12,54,12.62,ML,1732555347
101,nuuk,64.1835,-51.7216,29.01,86,40,16.11,GL,1732555648
102,ribeira grande,38.5167,-28.7,68.77,88,40,19.57,PT,1732555649
103,nishinoomote,30.7333,131.0,68.61,62,87,20.07,JP,1732555652
104,isafjordur,66.0755,-23.124,28.44,64,20,14.97,IS,1732555653
105,afaahiti,-17.75,-149.2833,76.64,85,88,14.76,PF,1732555655
106,coquimbo,-29.9533,-71.3436,71.98,51,0,17.27,CL,1732555656
107,porto novo,6.4965,2.6036,85.82,66,71,7.65,BJ,1732555657
108,bilibino,68.0546,166.4372,-29.81,100,82,2.91,RU,1732555658
109,ancud,-41.8697,-73.8203,51.17,91,100,12.73,CL,1732555659
110,tolanaro,-25.0319,46.9987,80.67,89,75,13.8,MG,1732555661
111,juan griego,11.0817,-63.9655,89.73,58,16,16.11,VE,1732555662
112,enewetak,11.3474,162.3373,82.74,82,100,19.28,MH,1732555663
113,saint-francois,46.4154,3.9054,53.04,95,100,3.44,FR,1732555664
114,halifax,44.6453,-63.5724,43.48,80,75,21.85,CA,1732555647
115,longyearbyen,78.2186,15.6401,12.04,79,100,20.71,SJ,1732555224
116,lebu,-37.6167,-73.65,62.8,65,9,16.87,CL,1732555667
117,dire,12.2833,-10.9667,96.22,14,0,3.47,ML,1732555668
118,la rinconada,37.4873,-5.9826,68.04,70,20,3.44,ES,1732555669
119,irymple,-34.25,142.1667,68.09,94,24,4.25,AU,1732555671
120,anadyr,64.75,177.4833,5.5,77,100,11.18,RU,1732555672
121,la sarre,48.8002,-79.1996,32.18,77,99,4.05,CA,1732555673
122,klyuchi,52.2667,79.1667,12.63,90,10,3.53,RU,1732555674
123,ataq,14.5377,46.8319,70.16,63,0,12.15,YE,1732555660
124,bubaque,11.2833,-15.8333,84.13,61,0,9.82,GW,1732555676
125,ulanhot,46.0833,122.0833,20.89,95,100,12.64,CN,1732555677
126,okha,53.5739,142.9478,18.73,88,16,7.99,RU,1732555678
127,mount isa,-20.7333,139.5,73.17,94,5,0.0,AU,1732555679
128,tokar,18.4254,37.729,81.63,75,61,11.95,SD,1732555680
129,luau,-10.7073,22.2247,68.34,88,81,2.19,AO,1732555681
130,urumqi,43.801,87.6005,13.15,92,40,2.24,CN,1732555683
131,dompu,-8.5356,118.4622,77.83,93,100,1.79,ID,1732555685
132,saldanha,-33.0117,17.9442,62.65,77,86,11.48,ZA,1732555686
133,cabedelo,-6.9811,-34.8339,86.67,61,42,10.27,BR,1732555687
134,hasaki,35.7333,140.8333,56.16,54,51,7.23,JP,1732555688
135,sinan,34.8262,126.1086,56.86,89,100,25.95,KR,1732555689
136,talnakh,69.4865,88.3972,18.61,95,100,8.7,RU,1732555690
137,cesky krumlov,48.8109,14.3152,37.76,93,8,1.9,CZ,1732555691
138,murghob,38.1702,73.9667,6.15,75,4,4.43,TJ,1732555578
139,kuala belait,4.5833,114.1833,77.32,94,100,7.43,BN,1732555694
140,kamloops,50.6665,-120.3192,28.74,73,100,13.8,CA,1732555695
141,brokopondo,4.75,-55.1667,86.23,58,8,1.54,SR,1732555696
142,kruisfontein,-34.0033,24.7314,64.65,87,63,16.49,ZA,1732555697
143,peace river,56.2501,-117.286,-3.35,94,0,3.44,CA,1732555698
144,oyama,36.3,139.8,48.43,55,0,3.33,JP,1732555699
145,winona,43.9666,-91.7668,36.99,84,100,11.5,US,1732555546
146,mejit,10.2753,170.8646,82.18,81,27,20.58,MH,1732555701
147,uturoa,-16.7333,-151.4333,80.11,78,71,13.85,PF,1732555702
148,cabo san lucas,22.8909,-109.9124,83.52,49,75,3.44,MX,1732555554
149,falkenberg,56.9055,12.4912,51.26,91,100,21.23,SE,1732555706
150,chonchi,-42.6128,-73.8092,54.12,97,100,7.92,CL,1732555707
151,kingston,17.997,-76.7936,81.55,74,75,20.71,JM,1732555616
152,jamestown,42.097,-79.2353,47.84,71,0,9.22,US,1732555709
153,yarmouth,41.7057,-70.2286,48.99,57,0,21.0,US,1732555710
154,uige,-7.6087,15.0613,69.51,93,70,3.06,AO,1732555711
155,touros,-5.1989,-35.4608,84.81,55,52,12.21,BR,1732555541
156,mil'kovo,55.6078,37.7956,27.3,57,56,6.98,RU,1732555713
157,badger,64.8,-147.5333,19.31,89,100,3.44,US,1732555715
158,borogontsy,62.6683,131.1683,-22.52,100,100,1.32,RU,1732555716
159,big stone gap,36.8677,-82.7745,56.14,82,46,5.7,US,1732555718
160,isla mujeres,21.2311,-86.731,80.65,56,1,6.15,MX,1732555719
161,sheridan,44.8333,-106.9173,40.17,77,34,3.22,US,1732555521
162,farim,12.4839,-15.2217,96.26,19,0,3.51,GW,1732555721
163,georgetown,5.4112,100.3354,80.53,93,20,2.3,MY,1732555478
164,bundaberg north,-24.8551,152.3425,68.72,87,7,5.97,AU,1732555724
165,as sulayyil,20.4607,45.5779,77.0,22,6,9.6,SA,1732555725
166,crane,31.3974,-102.3501,63.64,33,65,21.39,US,1732555726
167,palikir - national government center,6.9248,158.1611,81.34,83,100,4.61,FM,1732555727
168,pangody,65.85,74.4859,20.62,86,17,17.43,RU,1732555728
169,taltal,-25.4,-70.4833,65.64,72,20,5.64,CL,1732555729
170,utrik,11.2278,169.8474,82.26,81,65,21.59,MH,1732555730
171,kidal,18.4411,1.4078,83.68,11,0,9.51,ML,1732555731
172,qaqortoq,60.7167,-46.0333,15.66,70,2,2.71,GL,1732555732
173,akhmet'a,42.0311,45.2075,46.08,97,100,1.43,GE,1732555733
174,timimoun,29.2639,0.231,73.78,33,0,11.5,DZ,1732555734
175,salinopolis,-0.6136,-47.3561,84.56,69,95,13.49,BR,1732555538
176,martins ferry,40.0959,-80.7245,53.62,76,100,10.36,US,1732555737
177,kafir qala,34.6667,61.0667,59.92,36,0,5.12,AF,1732555738
178,minas de marcona,-15.2119,-75.1103,69.24,50,53,17.9,PE,1732555739
179,mournies,35.4764,24.0092,50.4,81,20,0.0,GR,1732555740
180,lethem,3.3803,-59.7968,97.32,35,42,7.14,GY,1732555741
181,kita,13.0349,-9.4895,94.37,11,0,7.09,ML,1732555742
182,lompoc,34.6391,-120.4579,57.92,84,100,14.97,US,1732555743
183,kamaishi,39.2667,141.8833,38.93,73,0,3.47,JP,1732555744
184,nabire,-3.3667,135.4833,76.78,92,100,1.66,ID,1732555745
185,vernon,50.2581,-119.2691,34.75,86,100,3.44,CA,1732555747
186,northam,51.0333,-4.2167,45.61,84,8,20.51,GB,1732555748
187,arraial do cabo,-22.9661,-42.0278,80.56,65,20,17.27,BR,1732555457
188,serdar,38.9764,56.2757,56.46,58,17,8.28,TM,1732555750
189,khorol,49.7837,33.2783,28.99,69,89,6.31,UA,1732555751
190,kuqa,41.7278,82.9364,32.09,58,3,13.44,CN,1732555752
191,baker city,44.7749,-117.8344,33.67,82,100,5.44,US,1732555753
192,saudarkrokur,65.7461,-19.6394,15.78,88,6,15.39,IS,1732555754
193,port lincoln,-34.7333,135.8667,63.48,93,98,10.76,AU,1732555755
194,keflavik,64.0049,-22.5624,27.03,68,0,5.75,IS,1732555756
195,villanueva,15.3167,-88.0,81.59,61,75,2.3,HN,1732555757
196,sydney mines,46.2367,-60.2177,46.78,86,75,10.36,CA,1732555759
197,verkhnevilyuysk,63.4453,120.3167,-24.16,99,24,2.89,RU,1732555760
198,motygino,58.1831,94.7592,22.95,92,100,9.64,RU,1732555761
199,remire-montjoly,4.9167,-52.2667,91.44,58,20,10.36,GF,1732555762
200,homer,59.6425,-151.5483,39.09,78,100,16.11,US,1732555763
201,villa dolores,-31.9459,-65.1896,83.21,58,88,3.49,AR,1732555500
202,dudinka,69.4058,86.1778,18.9,94,99,17.27,RU,1732555765
203,thompson,55.7435,-97.8558,6.96,85,100,12.66,CA,1732555766
204,bayside,40.8424,-124.0637,51.58,94,100,10.36,US,1732555767
205,varna,43.2167,27.9167,36.88,64,3,3.44,BG,1732555768
206,iyidere,41.0119,40.3619,41.25,78,77,5.26,TR,1732555770
207,praia da vitoria,38.7333,-27.0667,66.45,82,40,22.57,PT,1732555771
208,boundiali,9.5217,-6.4869,89.51,19,61,4.05,CI,1732555772
209,aljezur,37.3191,-8.8033,59.92,60,72,6.2,PT,1732555773
210,alice springs,-23.7,133.8833,72.95,83,100,9.22,AU,1732555774
211,college,64.8569,-147.8028,19.38,87,100,3.44,US,1732555775
212,hithadhoo,-0.6,73.0833,82.78,77,100,15.17,MV,1732555776
213,nova sintra,14.8667,-24.7167,78.26,75,3,13.47,CV,1732555777
214,turpan,42.9333,89.1667,33.53,38,43,2.08,CN,1732555778
215,ziway,7.9333,38.7167,67.17,37,1,3.56,ET,1732555779
216,san patricio,28.017,-97.5169,82.35,52,0,13.94,US,1732555781
217,amarillo,35.222,-101.8313,41.23,63,0,19.57,US,1732555659
218,santo domingo zanatepec,16.4831,-94.3475,87.75,29,1,4.99,MX,1732555783
219,sakata,38.9167,139.855,42.3,75,2,8.88,JP,1732555784
220,ayvacik,39.6011,26.4047,38.98,63,1,9.8,TR,1732555785
221,brookings,44.3114,-96.7984,22.17,74,0,18.41,US,1732555787
222,celestun,20.8667,-90.4,80.71,49,16,3.42,MX,1732555788
223,basco,20.4487,121.9702,79.92,79,14,16.78,PH,1732555789
224,uliastay,47.7417,96.8444,-3.14,86,51,5.61,MN,1732555791
225,la passe,45.5549,-0.8967,53.89,77,100,11.83,FR,1732555792
226,west island,-12.1568,96.8225,78.78,94,100,23.02,CC,1732555793
227,embi,48.8264,58.1442,31.95,71,0,8.39,KZ,1732555794
228,shingu,33.7333,135.9833,58.96,83,100,7.96,JP,1732555795
229,beato antonio,38.7333,-9.1034,62.15,66,20,4.61,PT,1732555796
230,sovetskaya gavan',48.9723,140.2878,17.69,81,8,3.33,RU,1732555797
231,kalmunai,7.4167,81.8167,75.16,97,100,9.33,LK,1732555798
232,camlachie,43.036,-82.1616,44.83,88,100,8.05,CA,1732555799
233,zeya,53.75,127.2667,12.83,93,100,6.67,RU,1732555801
234,baidoa,3.1138,43.6498,80.94,56,92,11.41,SO,1732555802
235,bardai,11.65,7.2333,73.62,20,7,8.3,NG,1732555803
236,mahebourg,-20.4081,57.7,77.29,83,40,8.05,MU,1732555804
237,plastun,44.7561,136.2939,24.75,88,97,3.47,RU,1732555805
238,namibe,-15.1961,12.1522,69.78,79,2,11.14,AO,1732555806
239,newman,37.3138,-121.0208,51.06,92,100,1.99,US,1732555809
240,fisterra,42.9049,-9.2629,58.69,65,25,18.01,ES,1732555810
241,fuerte olimpo,-21.0415,-57.8738,107.04,21,73,7.38,PY,1732555813
242,christchurch,-43.5333,172.6333,55.9,90,100,9.22,NZ,1732555814
243,juneau,58.3019,-134.4197,26.6,63,75,10.36,US,1732555555
244,palmer,42.1584,-72.3287,49.51,40,20,6.91,US,1732555528
245,brisas de zicatela,15.8369,-97.0419,84.72,70,40,0.0,MX,1732555819
246,boguchany,58.3814,97.4531,15.1,97,99,5.1,RU,1732555820
247,haparanda,65.8355,24.1368,35.65,94,54,11.36,SE,1732555821
248,new norfolk,-42.7826,147.0587,56.71,94,90,1.95,AU,1732555790
249,hadibu,12.65,54.0333,78.53,70,11,6.46,YE,1732555824
250,urangan,-25.3,152.9,73.22,81,0,11.5,AU,1732555825
251,zav'yalovo,56.7847,53.3776,26.4,83,96,3.04,RU,1732555826
252,jamnagar,22.4667,70.0667,77.45,41,0,9.78,IN,1732555827
253,whitehorse,60.7161,-135.0538,5.77,77,75,16.11,CA,1732555829
254,prince albert,53.2001,-105.7677,-0.45,78,75,4.61,CA,1732555830
255,loch garman,52.3342,-6.4575,45.9,84,36,10.0,IE,1732555831
256,vila franca do campo,37.7167,-25.4333,66.61,99,100,16.17,PT,1732555832
257,hualien city,23.9769,121.6044,67.32,98,2,6.53,TW,1732555834
258,yanam,16.7333,82.2167,77.76,66,100,6.8,IN,1732555835
259,lubao,14.9167,120.55,80.31,84,57,5.88,PH,1732555836
260,jining,35.405,116.5814,36.18,45,23,13.29,CN,1732555837
261,tazovsky,67.4667,78.7,20.41,87,27,19.35,RU,1732555838
262,bismarck,46.8083,-100.7837,12.65,73,100,13.8,US,1732555840
263,greymouth,-42.4667,171.2,58.42,98,99,1.16,NZ,1732555841
264,at taj,24.2049,23.2857,54.28,41,0,10.36,LY,1732555842
265,harper,4.375,-7.7169,80.6,75,26,5.21,LR,1732555843
266,dubbo,-32.25,148.6167,75.33,53,18,8.05,AU,1732555846
267,balykshi,47.0667,51.8667,33.8,69,0,11.18,KZ,1732555847
268,egilsstadir,65.2653,-14.3948,15.71,79,0,8.05,IS,1732555848
269,kailua-kona,19.6406,-155.9956,74.59,82,0,3.44,US,1732555850
270,mogocha,53.7333,119.7667,6.22,89,100,6.44,RU,1732555851
271,calca,-13.3333,-71.95,69.15,66,87,6.67,PE,1732555852
272,el calafate,-50.3408,-72.2768,54.55,53,48,5.17,AR,1732555853
273,dryden,49.7833,-92.7503,26.89,93,75,5.75,CA,1732555854
274,gadzhiyevo,69.2551,33.3362,33.64,88,98,25.3,RU,1732555856
275,mount pearl,47.5166,-52.7813,45.45,93,100,6.91,CA,1732555857
276,raciborz,50.0919,18.2193,47.71,73,10,18.63,PL,1732555858
277,tame,6.461,-71.73,88.5,52,92,7.65,CO,1732555859
278,ta`u,-14.2336,-169.5144,80.33,79,62,12.37,AS,1732555861
279,sitka,57.0531,-135.33,31.89,80,75,0.0,US,1732555862
280,atlantic beach,30.3344,-81.3987,75.06,50,0,5.75,US,1732555863
281,mizdah,31.4451,12.9801,56.23,56,36,5.08,LY,1732555864
282,kristiansund,63.1115,7.732,45.25,61,0,3.44,NO,1732555865
283,susanville,40.4163,-120.653,37.81,81,100,3.94,US,1732555868
284,novodvinsk,64.4165,40.8122,31.75,86,100,18.66,RU,1732555869
285,flin flon,54.7682,-101.865,8.44,85,100,8.05,CA,1732555870
286,el porvenir,13.7617,-87.3458,85.64,51,5,0.65,HN,1732555872
287,carnarvon,-24.8667,113.6333,69.31,67,1,27.13,AU,1732555873
288,greater sudbury,46.49,-80.99,29.05,89,100,3.0,CA,1732555874
289,mili,6.0815,171.735,82.96,77,78,16.08,MH,1732555875
290,nova vicosa,-17.8919,-39.3719,78.46,57,15,11.05,BR,1732555877
291,fort st. john,56.2499,-120.8529,-11.31,84,0,12.66,CA,1732555878
292,rongelap,11.1635,166.8941,82.63,81,65,18.77,MH,1732555879
293,alofi,-19.0595,-169.9187,76.89,94,75,6.91,NU,1732555880
294,ouro preto do oeste,-10.7481,-62.2158,93.45,45,43,6.69,BR,1732555882
295,dordrecht,51.81,4.6736,49.98,92,100,10.0,NL,1732555883
296,port douglas,-16.4833,145.4667,76.62,72,17,8.63,AU,1732555607
297,queenstown,-31.8976,26.8753,75.56,57,100,3.53,ZA,1732555885
298,la jolla,32.8473,-117.2742,66.87,72,0,4.61,US,1732555886
299,paracuru,-3.41,-39.0306,84.83,59,86,13.4,BR,1732555888
300,arkhangel'sk,64.5401,40.5433,32.11,93,100,22.37,RU,1732555889
301,tofol,5.3248,163.0078,84.2,74,99,18.48,FM,1732555890
302,rey bouba,8.6724,14.1786,79.77,21,5,2.64,CM,1732555891
303,seoni malwa,22.45,77.4667,62.85,48,7,6.44,IN,1732555893
304,yelabuga,55.7613,52.0649,27.95,67,100,2.62,RU,1732555894
305,nova xavantina,-14.6667,-52.35,81.41,80,77,3.94,BR,1732555895
306,westport,41.1415,-73.3579,52.16,45,0,12.66,US,1732555896
307,laayoune,27.1622,-13.2032,77.34,69,1,8.05,EH,1732555898
308,sabha,27.0377,14.4283,58.32,45,2,8.68,LY,1732555899
309,sao felix do xingu,-6.6447,-51.995,93.16,42,90,0.63,BR,1732555900
310,nichinan,31.6,131.3667,62.53,74,89,4.61,JP,1732555901
311,nchelenge,-9.3451,28.734,73.08,79,24,6.69,ZM,1732555902
312,ola,59.5833,151.2833,2.07,71,79,12.75,RU,1732555904
313,pyhajarvi,67.0701,27.2176,35.29,92,100,9.51,FI,1732555905
314,motueka,-41.1333,173.0167,59.29,82,11,5.55,NZ,1732555907
315,tsiombe,-25.3,45.4833,76.03,89,99,14.99,MG,1732555909
316,balnearia,-31.0088,-62.6673,77.0,84,100,5.64,AR,1732555910
317,mancio lima,-7.6142,-72.8958,87.87,62,75,4.61,BR,1732555911
318,sisimiut,66.9395,-53.6735,31.6,86,100,31.63,GL,1732555914
319,ha tinh,18.3333,105.9,72.73,94,96,4.36,VN,1732555915
320,macas,-2.3167,-78.1167,80.35,57,75,6.91,EC,1732555750
321,ar rahad,12.7167,30.65,76.06,20,4,10.67,SD,1732555917
322,kununurra,-15.7667,128.7333,78.78,94,34,4.61,AU,1732555918
323,nguigmi,14.2495,13.1092,76.71,22,8,12.55,NE,1732555920
324,aykhal,66.0,111.5,-7.89,96,100,34.0,RU,1732555921
325,hobyo,5.3505,48.5268,80.58,78,54,14.2,SO,1732555922
326,devarkonda,16.7,78.9333,67.1,68,100,3.4,IN,1732555923
327,starominskaya,46.53,39.0497,35.42,94,100,12.06,RU,1732555925
328,kyren,51.6828,102.1408,15.24,88,100,0.11,RU,1732555926
329,korla,41.7597,86.1469,32.56,51,83,9.28,CN,1732555927
330,padang,-0.9492,100.3543,80.65,81,100,4.23,ID,1732555928
331,mariinsk,56.2139,87.7472,22.21,89,85,9.06,RU,1732555929
332,ouallam,14.3188,2.0866,82.99,12,1,10.38,NE,1732555931
333,luderitz,-26.6481,15.1594,61.59,79,1,16.4,NA,1732555932
334,inari,68.906,27.0288,22.98,86,68,6.71,FI,1732555933
335,udachny,66.4167,112.4,-3.55,96,100,27.94,RU,1732555934
336,acacias,3.987,-73.758,83.75,67,74,5.37,CO,1732555936
337,valparaiso,-33.0393,-71.6273,76.64,45,0,9.22,CL,1732555937
338,cockburn town,21.4612,-71.1419,78.76,89,75,11.5,TC,1732555938
339,dapa,9.7594,126.0531,80.4,85,14,8.68,PH,1732555939
340,kannangad,12.3081,75.1063,76.15,80,84,4.32,IN,1732555940
341,hinton,53.4001,-117.5857,15.33,84,100,1.52,CA,1732555942
342,ivdel',60.6911,60.4206,24.08,97,100,1.59,RU,1732555943
343,broome,42.2506,-75.833,47.66,64,0,1.99,US,1732555944
344,tralee,52.2704,-9.7026,43.05,100,75,2.3,IE,1732555945
345,prince rupert,54.3161,-130.3201,33.49,60,22,16.11,CA,1732555947
346,nemuro,43.3236,145.575,35.04,72,41,13.33,JP,1732555948
347,okhotsk,59.3833,143.3,6.33,71,0,12.75,RU,1732555949
348,magadan,59.5667,150.8,5.81,61,75,11.97,RU,1732555950
349,bathsheba,13.2167,-59.5167,86.61,79,75,18.41,BB,1732555951
350,vadso,70.0744,29.7487,32.52,83,84,21.74,NO,1732555953
351,cozumel,20.5083,-86.9458,82.47,69,40,4.61,MX,1732555954
352,pisco,-13.7,-76.2167,73.45,68,0,10.36,PE,1732555955
353,beledweyne,4.7358,45.2036,88.88,39,61,12.91,SO,1732555956
354,sogndal,61.2283,7.1003,39.58,100,75,2.3,NO,1732555958
355,visby,57.6409,18.296,52.03,71,0,21.85,SE,1732555959
356,rudbar,30.15,62.6,65.1,30,40,0.72,AF,1732555960
357,anloga,5.7947,0.8973,83.37,68,51,10.56,GH,1732555961
358,antsirabe,-19.85,47.0333,63.54,91,99,1.92,MG,1732555963
359,lerwick,60.1545,-1.1494,46.98,86,100,15.41,GB,1732555964
360,ceerigaabo,10.6162,47.368,65.25,71,57,0.89,SO,1732555965
361,sur,22.5667,59.5289,77.32,66,15,4.85,OM,1732555966
362,vila velha,-20.3297,-40.2925,78.75,69,40,11.5,BR,1732555967
363,east ballina,-28.8667,153.5833,65.3,89,1,4.59,AU,1732555969
364,pampierstad,-27.7832,24.6877,85.59,25,50,15.68,ZA,1732555970
365,kill devil hills,36.0307,-75.676,62.62,62,0,5.75,US,1732555971
366,twon-brass,4.3151,6.2418,82.42,72,70,14.38,NG,1732555972
367,jacmel,18.2342,-72.5347,82.89,73,96,4.21,HT,1732555974
368,kalix,65.853,23.1565,35.58,94,36,9.62,SE,1732555975
369,nar'yan-mar,67.6713,53.087,26.58,89,100,34.31,RU,1732555976
370,china,25.7,-99.2333,79.75,46,0,3.29,MX,1732555977
371,tokonou,9.65,-9.7833,79.21,30,65,3.09,GN,1732555979
372,la ronge,55.1001,-105.2842,5.25,92,100,8.05,CA,1732555980
373,fauske,67.2588,15.3918,37.94,92,100,2.68,NO,1732555981
374,mossel bay,-34.1831,22.146,66.13,80,80,18.59,ZA,1732555982
375,usinsk,65.9939,57.5281,23.5,87,100,31.85,RU,1732555983
376,meadow lake,34.8014,-106.5436,54.68,35,93,2.66,US,1732555985
377,ponta delgada,37.7333,-25.6667,66.92,82,20,16.11,PT,1732555986
378,waycross,31.2136,-82.354,73.45,43,0,4.61,US,1732555820
379,vilhena,-12.7406,-60.1458,86.22,58,75,6.91,BR,1732555988
380,chinde,26.8212,87.7095,60.57,77,41,5.28,NP,1732555990
381,porbandar,21.6422,69.6093,77.52,41,0,5.95,IN,1732555991
382,santiago de cuba,20.0247,-75.8219,80.71,78,100,3.44,CU,1732555992
383,khanty-mansiysk,61.0042,69.0019,26.71,59,0,6.71,RU,1732555993
384,balabac,7.9868,117.0645,82.08,83,100,15.05,PH,1732555994
385,yurga,55.7231,84.8861,11.55,92,65,6.64,RU,1732555996
386,kenora,49.8167,-94.4337,25.77,93,100,6.91,CA,1732555997
387,veraval,20.9,70.3667,75.72,60,23,4.9,IN,1732555998
388,arkhipo-osipovka,44.37,38.52,39.15,97,100,17.16,RU,1732555999
389,katsuura,35.1333,140.3,53.62,65,1,6.35,JP,1732556001
390,pitkyaranta,61.5734,31.4792,39.92,92,100,22.03,RU,1732556002
391,la plata,-34.9215,-57.9545,77.38,77,96,8.61,AR,1732556003
392,kerema,-7.9631,145.7785,77.72,89,99,4.85,PG,1732556004
393,bandarbeyla,9.4942,50.8122,79.07,79,80,13.24,SO,1732556006
394,smithers,54.7804,-127.1743,3.52,92,75,5.75,CA,1732556007
395,waingapu,-9.6567,120.2641,81.81,79,86,2.1,ID,1732556008
396,qamdo,31.1667,97.2333,23.18,25,36,3.06,CN,1732556009
397,xuddur,4.1213,43.8894,84.7,40,72,7.34,SO,1732556010
398,de aar,-30.6497,24.0123,83.35,13,38,20.15,ZA,1732556012
399,maebaru-chuo,33.55,130.2,56.71,65,100,8.75,JP,1732556013
400,vilyuchinsk,52.9306,158.4028,21.47,75,100,9.71,RU,1732556014
401,east toowoomba,-27.5608,151.9673,59.5,93,33,4.0,AU,1732556015
402,nyurba,63.2842,118.3319,-17.41,97,49,6.53,RU,1732556017
403,ruokolahti,61.2833,28.8333,39.78,95,100,19.1,FI,1732556018
404,guigang,23.0964,109.6092,60.96,66,100,8.05,CN,1732556019
405,vershino-darasunskiy,52.35,115.5167,-3.51,97,100,5.19,RU,1732556022
406,dien bien phu,21.3833,103.0167,68.34,88,79,2.93,VN,1732556023
407,sabang,5.8933,95.3214,80.58,84,99,7.96,ID,1732556024
408,cromer,52.9312,1.2989,48.2,70,15,13.0,GB,1732556025
409,berezovyy,51.6667,135.7,13.68,92,100,1.61,RU,1732556027
410,lodwar,3.1191,35.5973,87.21,43,100,11.77,KE,1732556028
411,troitsko-pechorsk,62.7084,56.1964,19.44,96,60,8.68,RU,1732556029
412,rock springs,41.5875,-109.2029,18.84,86,0,3.44,US,1732556029
413,mahanoro,-19.9,48.8,76.84,88,7,6.08,MG,1732556034
414,kenai,60.5544,-151.2583,37.49,93,100,9.22,US,1732556035
415,kimbe,-5.5502,150.1429,75.96,92,99,2.95,PG,1732556037
416,khovd,48.0056,91.6419,13.93,67,10,6.51,MN,1732556038
417,baiyin,36.5583,104.2081,20.71,47,0,0.56,CN,1732556039
418,tucuma,-0.1833,-50.05,85.35,66,55,11.25,BR,1732556040
419,horta,38.5333,-28.6333,67.64,91,40,19.57,PT,1732556042
420,auki,-8.7676,160.7034,76.95,90,66,4.43,SB,1732556043
421,ambikapur,23.1167,83.2,55.47,58,74,3.62,IN,1732556044
422,ghanzi,-21.5667,21.7833,76.51,49,45,4.97,BW,1732556045
423,vallenar,-28.5708,-70.7581,85.96,29,2,9.06,CL,1732556046
424,zambezi,-13.5432,23.1047,67.48,88,97,2.08,ZM,1732556048
425,pasuquin,18.3328,120.6177,77.38,82,14,7.87,PH,1732556049
426,callao,-12.0667,-77.15,71.89,73,75,10.36,PE,1732556049
427,samtse,26.899,89.0995,59.95,84,77,5.01,BT,1732556051
428,ngou,5.1959,10.3844,64.15,67,17,2.75,CM,1732556053
429,shalkar,47.8288,59.6258,32.56,71,0,11.12,KZ,1732556054
430,goure,13.9835,10.2704,74.95,18,13,9.91,NE,1732556055
431,new bern,35.1085,-77.0441,68.05,48,0,5.75,US,1732556056
432,humaita,-7.5061,-63.0208,86.72,61,73,2.73,BR,1732556057
433,page,36.9147,-111.4558,42.58,58,0,1.01,US,1732556059
434,joaquin v. gonzalez,-25.0833,-64.1833,99.95,34,91,9.26,AR,1732556060
435,yilan,24.757,121.753,68.47,86,17,5.39,TW,1732555913
436,parambu,-6.2111,-40.6944,92.3,35,63,5.93,BR,1732556062
437,ketchikan,55.3422,-131.6461,29.34,57,85,2.68,US,1732556064
438,tubarjal,30.4999,38.216,53.1,42,0,10.13,SA,1732556065
439,zakamensk,50.3741,103.2863,7.75,77,98,3.71,RU,1732556066
440,weligama,5.9667,80.4167,73.89,94,100,7.74,LK,1732556067
441,yokadouma,3.5167,15.05,77.7,50,42,1.36,CM,1732556069
442,galliano,29.4422,-90.2992,78.8,53,0,12.66,US,1732556070
443,maturin,9.75,-63.1767,85.84,100,52,5.75,VE,1732556071
444,noshiro,40.2039,140.0242,37.58,81,3,7.2,JP,1732556073
445,menaka,15.9182,2.4022,83.61,12,1,10.07,ML,1732556075
446,karratha,-20.7377,116.8463,80.87,62,29,14.47,AU,1732556076
447,lazaro cardenas,17.9583,-102.2,82.87,63,1,3.56,MX,1732555780
448,banda aceh,5.5577,95.3222,77.23,92,100,5.19,ID,1732556080
449,monrovia,6.3005,-10.7969,82.09,73,12,10.47,LR,1732556081
450,outjo,-20.1167,16.15,79.9,32,62,18.37,NA,1732556082
451,gagarin,55.5529,34.9954,27.86,91,100,13.49,RU,1732556083
452,puerto armuelles,8.2833,-82.8667,77.09,90,57,5.01,PA,1732556085
453,bengkulu,-3.8004,102.2655,74.46,93,100,6.89,ID,1732556086
454,la foa,-21.7108,165.8276,74.5,80,86,3.51,NC,1732556087
455,hun,29.1268,15.9477,59.99,51,100,8.86,LY,1732556088
456,codrington,-38.2667,141.9667,57.83,97,2,6.44,AU,1732556090
457,dwarka,22.2394,68.9678,78.58,53,0,11.5,IN,1732556091
458,labrador city,52.9463,-66.9114,33.71,94,75,18.01,CA,1732556092
459,daru,-9.0763,143.2092,79.23,90,46,11.83,PG,1732556093
460,farasan,16.7022,42.1183,83.7,71,2,9.17,SA,1732556094
461,puerto baquerizo moreno,-0.9,-89.6,79.79,57,40,16.11,EC,1732556096
462,lata,40.1629,-8.3327,49.23,76,97,0.25,PT,1732556097
463,i-n-salah,27.1935,2.4607,71.89,29,7,10.71,DZ,1732556098
464,kargasok,59.0556,80.8572,23.74,84,100,8.5,RU,1732556099
465,priozersk,61.0393,30.1291,38.08,100,100,17.22,RU,1732556101
466,val-d'or,48.1002,-77.7828,28.49,93,100,6.91,CA,1732556102
467,kasama,-10.2129,31.1808,69.91,70,80,1.59,ZM,1732556103
468,dampit,-8.2116,112.7493,73.08,98,100,2.57,ID,1732556104
469,eyl,7.9803,49.8164,79.39,76,18,15.23,SO,1732556106
470,carutapera,-1.195,-46.02,85.59,62,93,11.16,BR,1732556107
471,haiku-pauwela,20.9219,-156.3051,69.21,88,20,8.99,US,1732556108
472,island harbour,50.724,-1.2758,51.03,61,70,4.0,GB,1732556109
473,puri,19.8,85.85,71.46,62,62,7.67,IN,1732556111
474,spring creek,40.7266,-115.5859,37.4,47,51,1.25,US,1732556112
475,masterton,-40.9597,175.6575,57.24,92,55,1.63,NZ,1732556113
476,bikenibeu village,1.3673,173.1241,82.36,78,20,13.8,KI,1732556114
477,manado,1.487,124.8455,75.97,94,20,2.3,ID,1732556024
478,engenheiro beltrao,-23.7972,-52.2692,92.91,24,2,5.88,BR,1732556117
479,cidreira,-30.1811,-50.2056,72.0,78,100,14.99,BR,1732556118
480,nadi,-17.8,177.4167,75.2,88,100,0.0,FJ,1732556119
481,radhanpur,23.8333,71.6,72.79,27,0,6.35,IN,1732556120
482,tyukhtet,56.5389,89.3011,21.4,88,85,9.6,RU,1732556122
483,graaff-reinet,-32.2522,24.5308,79.92,58,84,12.1,ZA,1732556123
484,paso de los toros,-32.8167,-56.5167,76.46,77,100,6.73,UY,1732556124
485,sao jose da coroa grande,-8.8978,-35.1478,81.88,65,41,13.0,BR,1732556125
486,novyy urengoy,66.0833,76.6333,20.19,86,20,18.25,RU,1732556127
487,monte cristo,-31.3431,-63.9444,75.76,90,100,6.93,AR,1732556128
488,sao gabriel da cachoeira,-0.1303,-67.0892,85.8,70,75,10.36,BR,1732556129
489,al burayqah,30.4062,19.5739,62.76,62,69,11.12,LY,1732556130
490,st. john's,47.5649,-52.7093,46.27,91,100,6.91,CA,1732556131
491,manaure,11.7751,-72.4445,88.97,61,99,16.04,CO,1732556133
492,balkanabat,39.5108,54.3671,59.49,47,85,6.24,TM,1732556134
493,port augusta,-32.5,137.7667,72.7,70,100,2.82,AU,1732556135
494,severnoye,56.3491,78.3619,17.38,85,96,5.32,RU,1732556138
495,volkhov,59.9258,32.3382,35.55,85,100,14.2,RU,1732555977
496,happy valley-goose bay,53.3168,-60.3315,39.51,87,100,17.27,CA,1732556140
497,sinop,41.7711,34.8709,33.12,99,100,4.88,TR,1732556141
498,wynne,35.2245,-90.7868,66.51,83,78,12.44,US,1732556143
499,ghat,24.9647,10.1728,66.72,35,0,7.65,LY,1732556144
500,alo,6.5486,4.2686,81.61,76,89,8.97,NG,1732556145
501,kourou,5.1552,-52.6478,85.8,63,51,6.85,GF,1732556146
502,morris,40.8334,-74.5329,51.96,49,20,5.75,US,1732556148
503,narvik,68.4384,17.4272,30.81,97,100,3.09,NO,1732556149
504,rurrenabaque,-14.4413,-67.5278,89.49,74,20,4.61,BO,1732556150
505,kuvandyk,51.4781,57.3552,21.99,84,5,8.28,RU,1732556151
506,rouyn-noranda,48.2398,-79.0288,28.49,86,100,3.44,CA,1732555865
507,nikolayevsk-on-amure,53.1406,140.73,4.28,94,6,2.86,RU,1732556154
508,kapuskasing,49.4169,-82.4331,28.49,100,100,1.14,CA,1732556155
509,usakos,-22.0,15.6,73.92,40,2,11.03,NA,1732556156
510,st. paul,44.9444,-93.0933,32.58,80,100,16.11,US,1732555890
511,liwale,-9.7667,37.9333,79.48,50,59,8.1,TZ,1732556160
512,iranshahr,27.2025,60.6848,73.74,28,0,0.0,IR,1732555941
513,ukiah,39.1502,-123.2078,52.38,93,100,4.61,US,1732555912
514,puerto montt,-41.4698,-72.9447,56.23,88,100,14.97,CL,1732556163
515,vi thanh,9.7835,105.4672,75.96,92,100,4.14,VN,1732556165
516,port hueneme,34.1478,-119.1951,60.21,78,100,8.05,US,1732556167
517,portel,-1.9356,-50.8211,95.05,40,70,5.79,BR,1732556168
518,antsohihy,-14.8796,47.9875,81.97,73,88,2.98,MG,1732556170
519,weno,7.4515,151.8468,84.15,84,100,6.91,FM,1732556171
520,gangapur,26.4833,76.7167,63.48,27,0,4.34,IN,1732556172
521,undurkhaan,47.3194,110.6556,12.83,43,94,14.47,MN,1732556173
522,shirvan,39.9509,48.8994,52.2,73,100,12.24,AZ,1732556175
523,talara,-4.5772,-81.2719,81.36,57,0,12.66,PE,1732556176
524,wanning,18.8003,110.3967,74.12,93,96,10.31,CN,1732556177
525,san antonio de pale,-1.4014,5.6325,79.07,82,100,11.97,GQ,1732556178
526,annaba,36.9,7.7667,63.46,66,0,5.48,DZ,1732556180
527,tanaina,61.6269,-149.4281,32.88,95,100,3.44,US,1732556181
528,caleta de carquin,-11.0925,-77.6267,71.73,74,83,11.1,PE,1732556182
529,thunder bay,48.4001,-89.3168,30.18,86,100,11.5,CA,1732556183
530,sheopur,25.6667,76.7,66.07,39,0,1.81,IN,1732556184
531,el granada,37.5027,-122.4694,55.35,91,100,10.36,US,1732556186
532,tumayr,25.7039,45.868,73.96,43,65,9.98,SA,1732556187
533,kavieng,-2.5744,150.7967,82.53,81,97,11.59,PG,1732556188
534,vohibinany,-17.35,49.0333,73.62,95,34,1.32,MG,1732556189
535,talakan,50.3167,130.3667,23.86,93,100,12.33,RU,1732556191
536,malango,-2.9627,119.9001,68.31,98,100,1.16,ID,1732556192
537,likisa,-8.6695,125.6875,69.26,91,75,1.25,TL,1732556193
538,novo aripuana,-5.1206,-60.3797,90.09,52,59,2.73,BR,1732556194
539,guane,22.2025,-84.0875,83.61,54,11,9.13,CU,1732556195
540,namdrik,5.5994,168.1028,84.51,70,74,18.41,MH,1732556197
541,tadine,-21.55,167.8833,73.74,93,99,15.14,NC,1732556198
542,beau vallon,-20.4189,57.6953,77.23,83,40,8.05,MU,1732556199
543,chibougamau,49.9168,-74.3659,31.62,86,100,8.05,CA,1732556200
544,fort bragg,35.139,-79.006,69.82,46,0,5.75,US,1732556204
545,labytnangi,66.6572,66.4183,20.23,86,63,14.88,RU,1732556205
546,agadez,19.75,10.25,69.89,28,0,7.96,NE,1732556207
547,brownfield,33.1812,-102.2744,50.54,40,96,13.22,US,1732556208
548,alvaraes,-3.2208,-64.8042,91.27,51,61,1.57,BR,1732556209
549,kirakira,-10.4544,161.9205,80.44,82,93,2.91,SB,1732556210
550,juegang,32.3174,121.1855,45.14,74,100,17.09,CN,1732556212
551,yerofey pavlovich,53.9667,121.9667,9.14,94,100,5.19,RU,1732556213
552,anatuya,-28.4606,-62.8347,94.98,43,82,12.19,AR,1732556214
553,diapaga,12.0708,1.7889,81.12,15,8,6.73,BF,1732556215
554,florida,28.7505,-82.5001,78.01,41,0,0.0,US,1732556087
555,butembo,0.15,29.2833,58.68,99,100,0.25,CD,1732556218
556,yashan,22.1975,109.9419,67.46,82,83,10.27,CN,1732556219
557,peterhead,57.5058,-1.7981,46.17,79,100,22.41,GB,1732556220
558,tamandare,-8.7597,-35.1047,82.18,64,41,12.24,BR,1732556221
559,mpongwe,-13.5091,28.155,68.74,81,94,7.23,ZM,1732556223
560,genhe,50.7833,121.5167,13.39,94,100,4.7,CN,1732556224
561,nyandoma,61.669,40.1991,30.34,88,100,17.67,RU,1732556225
562,rosarito,32.3333,-117.0333,59.97,42,94,7.38,MX,1732556226
563,guiuan,11.0333,125.7247,82.33,81,34,14.99,PH,1732556228
564,barclayville,4.6797,-8.2339,79.54,79,57,6.71,LR,1732556229
565,ringkobing,56.0901,8.244,49.98,87,100,18.41,DK,1732556230
566,kozhevnikovo,56.2589,83.9714,14.59,93,75,6.26,RU,1732556231
567,tut,37.7953,37.9161,29.53,63,99,6.78,TR,1732556232
568,kerikeri,-35.2268,173.9474,51.91,89,91,3.53,NZ,1732556234
569,kisangani,0.5167,25.2,69.31,97,93,2.73,CD,1732556235
570,dabeiba,7.0017,-76.2672,78.49,83,77,3.0,CO,1732556236
571,soma,39.1855,27.6094,39.07,71,10,6.24,TR,1732556237
572,dayton,39.7589,-84.1916,59.86,76,100,12.66,US,1732556239
573,hirekerur,14.4667,75.3833,66.07,60,95,7.4,IN,1732556240
574,quellon,-43.1167,-73.6167,51.91,93,100,15.79,CL,1732556241
575,eureka,40.8021,-124.1637,51.62,95,66,3.0,US,1732556090
576,huarmey,-10.0681,-78.1522,73.0,73,58,11.52,PE,1732556243
577,m'sila,35.7058,4.5419,59.76,52,64,11.12,DZ,1732556245
578,mongo,12.1844,18.693,77.72,18,5,7.07,TD,1732556246
579,qiongshan,20.0058,110.3542,73.38,88,75,8.95,CN,1732556247
